{"disruptions":[],"pagination":{"start_page":0,"items_on_page":25,"items_per_page":25,"total_result":3029},"stop_areas":[{"codes":[{"type":"CR-CI-CH","value":"0080-253914-BV"}],"name":"Saarbrucken-Hbf","links":[],"coord":{"lat":"49.24065","lon":"6.990968"},"label":"Saarbrucken-Hbf (Saarbr\u00fccken)","administrative_regions":[{"insee":"","name":"Saarbr\u00fccken","level":8,"coord":{"lat":"49.23436","lon":"6.996379"},"label":"Saarbr\u00fccken","id":"admin:1187159extern","zip_code":""},{"insee":"","name":"Mitte","level":9,"coord":{"lat":"49.251404","lon":"6.99026"},"label":"Mitte","id":"admin:5432693extern","zip_code":""}],"timezone":"Europe\/Paris","id":"stop_area:OCE:SA:80253914"},{"codes":[{"type":"CR-CI-CH","value":"0080-110684-00"}],"name":"Frankfurt-am-Main-Hbf","links":[],"coord":{"lat":"50.107216","lon":"8.66405"},"label":"Frankfurt-am-Main-Hbf","administrative_regions":[{"insee":"","name":"Gallus","level":9,"coord":{"lat":"50.103378","lon":"8.636285"},"label":"Gallus","id":"admin:4209936extern","zip_code":""}],"timezone":"Europe\/Paris","id":"stop_area:OCE:SA:80110684"},{"codes":[{"type":"CR-CI-CH","value":"0080-140087-BV"}],"name":"Mannheim-Hbf","links":[],"coord":{"lat":"49.479714","lon":"8.470079"},"label":"Mannheim-Hbf","administrative_regions":[{"insee":"","name":"Schwetzingerstadt\/Oststadt","level":9,"coord":{"lat":"49.48053","lon":"8.488332"},"label":"Schwetzingerstadt\/Oststadt","id":"admin:3286571extern","zip_code":""}],"timezone":"Europe\/Paris","id":"stop_area:OCE:SA:80140087"},{"codes":[{"type":"CR-CI-CH","value":"0080-142281-BV"}],"name":"Karlsruhe-Hbf","links":[],"coord":{"lat":"48.99439","lon":"8.400254"},"label":"Karlsruhe-Hbf","timezone":"Europe\/Paris","id":"stop_area:OCE:SA:80142281"},{"codes":[{"type":"CR-CI-CH","value":"0080-142778-BV"}],"name":"Baden-Baden","links":[],"coord":{"lat":"48.790281","lon":"8.191165"},"label":"Baden-Baden","timezone":"Europe\/Paris","id":"stop_area:OCE:SA:80142778"},{"codes":[{"type":"CR-CI-CH","value":"0080-142893-BV"}],"name":"Appenweier","links":[],"coord":{"lat":"48.541326","lon":"7.973672"},"label":"Appenweier (Appenweier)","administrative_regions":[{"insee":"","name":"Appenweier","level":8,"coord":{"lat":"48.553204","lon":"7.97982"},"label":"Appenweier","id":"admin:452982extern","zip_code":""}],"timezone":"Europe\/Paris","id":"stop_area:OCE:SA:80142893"},{"codes":[{"type":"CR-CI-CH","value":"0080-142901-00"}],"name":"Legelshurst","links":[],"coord":{"lat":"48.558571","lon":"7.913724"},"label":"Legelshurst (Willst\u00e4tt)","administrative_regions":[{"insee":"","name":"Willst\u00e4tt","level":8,"coord":{"lat":"48.550797","lon":"7.894595"},"label":"Willst\u00e4tt","id":"admin:452980extern","zip_code":""}],"timezone":"Europe\/Paris","id":"stop_area:OCE:SA:80142901"},{"codes":[{"type":"CR-CI-CH","value":"0080-142919-00"}],"name":"Kork","links":[],"coord":{"lat":"48.570017","lon":"7.874009"},"label":"Kork (Kehl)","administrative_regions":[{"insee":"","name":"Kehl","level":8,"coord":{"lat":"48.573151","lon":"7.811103"},"label":"Kehl","id":"admin:452979extern","zip_code":""}],"timezone":"Europe\/Paris","id":"stop_area:OCE:SA:80142919"},{"codes":[{"type":"CR-CI-CH","value":"0080-021402-BV"}],"name":"Augsburg-Hbf","links":[],"coord":{"lat":"48.365581","lon":"10.886756"},"label":"Augsburg-Hbf","timezone":"Europe\/Paris","id":"stop_area:OCE:SA:80021402"},{"codes":[{"type":"CR-CI-CH","value":"0071-793158-BV"}],"name":"Port-Bou","links":[],"coord":{"lat":"42.424467","lon":"3.15786"},"label":"Port-Bou (Portbou)","administrative_regions":[{"insee":"","name":"Portbou","level":8,"coord":{"lat":"42.427444","lon":"3.158865"},"label":"Portbou","id":"admin:345217extern","zip_code":""}],"timezone":"Europe\/Paris","id":"stop_area:OCE:SA:71793150"},{"codes":[{"type":"CR-CI-CH","value":"0087-677914-WE"}],"name":"Irun","links":[],"coord":{"lat":"43.339432","lon":"-1.801337"},"label":"Irun (Irun)","administrative_regions":[{"insee":"","name":"Irun","level":8,"coord":{"lat":"43.338318","lon":"-1.788809"},"label":"Irun","id":"admin:346782extern","zip_code":""}],"timezone":"Europe\/Paris","id":"stop_area:OCE:SA:71116000"},{"codes":[{"type":"CR-CI-CH","value":"0080-251819-BV"}],"name":"Trier-Hbf","links":[],"coord":{"lat":"49.756761","lon":"6.652361"},"label":"Trier-Hbf","timezone":"Europe\/Paris","id":"stop_area:OCE:SA:80251819"},{"codes":[{"type":"CR-CI-CH","value":"0080-251850-BV"}],"name":"Konz-Mitte","links":[],"coord":{"lat":"0.0","lon":"0.0"},"label":"Konz-Mitte","timezone":"Europe\/Paris","id":"stop_area:OCE:SA:80251850"},{"codes":[{"type":"CR-CI-CH","value":"0080-251967-BV"}],"name":"Perl","links":[],"coord":{"lat":"0.0","lon":"0.0"},"label":"Perl","timezone":"Europe\/Paris","id":"stop_area:OCE:SA:80251967"},{"codes":[{"type":"CR-CI-CH","value":"0087-113209-BV"}],"name":"Pantin","links":[],"coord":{"lat":"48.897776","lon":"2.400426"},"label":"Pantin (Pantin)","administrative_regions":[{"insee":"93055","name":"Pantin","level":8,"coord":{"lat":"48.896503","lon":"2.40198"},"label":"Pantin (93500)","id":"admin:67685extern","zip_code":"93500"}],"timezone":"Europe\/Paris","id":"stop_area:OCE:SA:87113209"},{"codes":[{"type":"CR-CI-CH","value":"0080-290346-BV"}],"name":"Stuttgart","links":[],"coord":{"lat":"48.783622","lon":"9.180496"},"label":"Stuttgart","administrative_regions":[{"insee":"","name":"Stuttgart-Mitte","level":9,"coord":{"lat":"48.77924","lon":"9.181115"},"label":"Stuttgart-Mitte","id":"admin:1107850extern","zip_code":""}],"timezone":"Europe\/Paris","id":"stop_area:OCE:SA:80290346"},{"codes":[{"type":"CR-CI-CH","value":"0080-194035-BV"}],"name":"Neustadt (Weinstr) Hbf","links":[],"coord":{"lat":"49.350034","lon":"8.140647"},"label":"Neustadt (Weinstr) Hbf","administrative_regions":[{"insee":"","name":"Neustadt-Stadtmitte","level":9,"coord":{"lat":"49.352497","lon":"8.117826"},"label":"Neustadt-Stadtmitte","id":"admin:456995extern","zip_code":""}],"timezone":"Europe\/Paris","id":"stop_area:OCE:SA:80194035"},{"codes":[{"type":"CR-CI-CH","value":"0080-194258-BV"}],"name":"Landau Hbf","links":[],"coord":{"lat":"49.1976","lon":"8.12557"},"label":"Landau Hbf","timezone":"Europe\/Paris","id":"stop_area:OCE:SA:80194258"},{"codes":[{"type":"CR-CI-CH","value":"0083-002451-00"}],"name":"Vercelli","links":[],"coord":{"lat":"45.329112","lon":"8.414824"},"label":"Vercelli (Vercelli)","administrative_regions":[{"insee":"","name":"Vercelli","level":8,"coord":{"lat":"45.325153","lon":"8.422766"},"label":"Vercelli (13100)","id":"admin:1552703extern","zip_code":"13100"}],"timezone":"Europe\/Paris","id":"stop_area:OCE:SA:83002451"},{"codes":[{"type":"CR-CI-CH","value":"0080-194324-BV"}],"name":"WINDEN PFALZ","links":[],"coord":{"lat":"49.095415","lon":"8.122376"},"label":"WINDEN PFALZ (Winden)","administrative_regions":[{"insee":"","name":"Winden","level":8,"coord":{"lat":"49.094616","lon":"8.11692"},"label":"Winden","id":"admin:1250497extern","zip_code":""}],"timezone":"Europe\/Paris","id":"stop_area:OCE:SA:80194324"},{"codes":[{"type":"CR-CI-CH","value":"0080-196980-BV"}],"name":"Kaiserslautern-Hbf","links":[],"coord":{"lat":"49.43628","lon":"7.768563"},"label":"Kaiserslautern-Hbf","timezone":"Europe\/Paris","id":"stop_area:OCE:SA:80196980"},{"codes":[{"type":"CR-CI-CH","value":"0080-203471-00"}],"name":"Munchen-Hbf","links":[],"coord":{"lat":"48.140325","lon":"11.560415"},"label":"Munchen-Hbf","administrative_regions":[{"insee":"","name":"Stadtbezirk 02 Ludwigsvorstadt-Isarvorstadt","level":9,"coord":{"lat":"48.13073","lon":"11.561022"},"label":"Stadtbezirk 02 Ludwigsvorstadt-Isarvorstadt","id":"admin:54392extern","zip_code":""}],"timezone":"Europe\/Paris","id":"stop_area:OCE:SA:80203471"},{"codes":[{"type":"CR-CI-CH","value":"0087-212910-WD"}],"name":"Kehl","links":[],"coord":{"lat":"48.576486","lon":"7.808005"},"label":"Kehl (Kehl)","administrative_regions":[{"insee":"","name":"Kehl","level":8,"coord":{"lat":"48.573151","lon":"7.811103"},"label":"Kehl","id":"admin:452979extern","zip_code":""}],"timezone":"Europe\/Paris","id":"stop_area:OCE:SA:80142927"},{"codes":[{"type":"CR-CI-CH","value":"0080-143099-BV"}],"name":"Offenburg","links":[],"coord":{"lat":"48.476447","lon":"7.946696"},"label":"Offenburg (Offenburg)","administrative_regions":[{"insee":"","name":"Offenburg","level":8,"coord":{"lat":"48.471657","lon":"7.944377"},"label":"Offenburg","id":"admin:452988extern","zip_code":""}],"timezone":"Europe\/Paris","id":"stop_area:OCE:SA:80143099"},{"codes":[{"type":"CR-CI-CH","value":"0080-143503-BV"}],"name":"Freiburg-Breisgau","links":[],"coord":{"lat":"47.997776","lon":"7.841564"},"label":"Freiburg-Breisgau","timezone":"Europe\/Paris","id":"stop_area:OCE:SA:80143503"}],"links":[{"href":"https:\/\/api.sncf.com\/v1\/coverage\/sncf\/stop_areas\/{stop_areas.id}","type":"stop_areas","rel":"stop_areas","templated":true},{"href":"https:\/\/api.sncf.com\/v1\/coverage\/sncf\/stop_areas\/{stop_areas.id}\/route_schedules","type":"route_schedules","rel":"route_schedules","templated":true},{"href":"https:\/\/api.sncf.com\/v1\/coverage\/sncf\/stop_areas\/{stop_areas.id}\/stop_schedules","type":"stop_schedules","rel":"stop_schedules","templated":true},{"href":"https:\/\/api.sncf.com\/v1\/coverage\/sncf\/stop_areas\/{stop_areas.id}\/arrivals","type":"arrivals","rel":"arrivals","templated":true},{"href":"https:\/\/api.sncf.com\/v1\/coverage\/sncf\/stop_areas\/{stop_areas.id}\/departures","type":"departures","rel":"departures","templated":true},{"href":"https:\/\/api.sncf.com\/v1\/coverage\/sncf\/stop_areas\/{stop_areas.id}\/places_nearby","type":"places_nearby","rel":"places_nearby","templated":true},{"href":"https:\/\/api.sncf.com\/v1\/coverage\/sncf\/stop_areas\/{stop_areas.id}\/journeys","type":"journey","rel":"journeys","templated":true},{"href":"https:\/\/api.sncf.com\/v1\/coverage\/sncf\/stop_areas\/{stop_areas.id}\/traffic_reports","type":"disruption","rel":"disruptions","templated":true},{"href":"https:\/\/api.sncf.com\/v1\/coverage\/sncf\/stop_areas?start_page=1","type":"next","templated":false},{"href":"https:\/\/api.sncf.com\/v1\/coverage\/sncf\/stop_areas?start_page=121.12","type":"last","templated":false},{"href":"https:\/\/api.sncf.com\/v1\/coverage\/sncf\/stop_areas","type":"first","templated":false}]}