Name,Latitude,Longitude,City,States
[ANB],33.58,85.85,Anniston,AL
[AUO],32.67,85.44,Auburn,AL
[BHM],33.57,86.75,Birmingham,AL
[CKL],32.90,87.25,Centreville,AL
[DHN],31.32,85.45,Dothan,AL
[OZR],31.28,85.72,FortRucker,AL
[GAD],33.97,86.09,Gadsden,AL
[HSV],34.65,86.77,Huntsville,AL
[MXF],32.38,86.37,MaxwellAFB,AL
[MOB],30.68,88.25,Mobile,AL
[BFM],30.63,88.07,MobileAeros,AL
[MGM],32.30,86.40,Montgomery,AL
[MSL],34.75,87.62,MuscleShoal,AL
[SEM],32.34,86.99,Selma,AL
[TOI],31.87,86.02,Troy,AL
[TCL],33.23,87.62,Tuscaloosa,AL
[ADK],51.88,176.65,Adak,AK
[Z60],67.10,157.85,Ambler,AK
[ANC],61.17,150.02,Anchorage,AK
[MRI],61.22,149.85,Anchorage,AK
[AGN],57.83,134.97,Angoon,AK
[ANI],61.58,159.53,Aniak,AK
[ANN],55.03,131.57,AnnetteIsl,AK
[ATU],53.50,173.30,Attu,AK
[BRW],71.30,156.78,Barrow,AK
[BTI],70.13,143.63,BarterIslan,AK
[BET],60.78,161.80,BethelArpt,AK
[BTT],66.92,151.52,Bettles,AK
[BIG],64.00,145.73,BigDelta,AK
[5BI],60.82,152.30,BigRiverLk,AK
[Z68],63.38,148.95,Cantwell,AK
[CDE],56.00,134.22,CapeDecis,AK
[5HN],60.38,147.08,CapeHinchi,AK
[CSP],58.33,137.05,CapeSpence,AK
[5CE],60.33,145.00,CapeStEli,AK
[WCR],67.50,148.48,ChandalarLk,AK
[Z00],62.88,149.83,Chulitna,AK
[CRC],65.83,144.07,CircleCity,AK
[CDB],55.20,162.72,ColdBay,AK
[CDV],60.50,145.50,Cordova,AK
[CGA],55.80,133.25,Craig,AK
[SCC],70.20,148.47,Deadhorse,AK
[DLG],59.05,158.52,Dillingham,AK
[5SZ],62.73,143.92,DuffysTavern,AK
[DUT],53.88,166.53,DutchHarbor,AK
[EAA],64.77,141.15,EagleArpt,AK
[ERO],59.62,135.37,EldredRock,AK
[ELV],58.20,136.35,ElfinCove,AK
[FAI],64.82,147.87,Fairbanks,AK
[FWL],62.85,154.47,Farewell,AK
[FIV],57.45,134.03,FiveFinger,AK
[FVM],65.93,149.83,FiveMile,AK
[FYU],66.57,145.27,FortYukon,AK
[FNR],58.25,134.90,FunterBay,AK
[GBH],68.48,149.48,GalbraithLk,AK
[GAM],63.77,171.73,Gambell,AK
[GKN],62.15,145.45,GulkanaArpt,AK
[GST],58.42,135.73,Gustavus,AK
[Z26],59.23,135.43,HainesHrbor,AK
[5HR],61.98,152.08,HayesRiver,AK
[5EA],63.83,149.00,HealyRiver,AK
[HOM],59.63,151.50,Homer,AK
[Z49],58.10,135.45,HoonahSeapl,AK
[ILI],59.75,154.92,IliamnaArpt,AK
[JNU],58.37,134.58,Juneau,AK
[KAE],56.97,133.95,KakeSeaplan,AK
[ENA],60.57,151.25,Kenai,AK
[KTN],55.35,131.70,Ketchikan,AK
[AKN],58.68,156.65,KingSalmon,AK
[ADQ],57.75,152.50,Kodiak,AK
[OTZ],66.87,162.63,Kotzebue,AK
[5WO],61.63,149.03,LazyMtn,AK
[LNI],70.92,153.23,Lonely(dew),AK
[MLY],65.00,150.65,ManleyHtSp,AK
[MXY],61.43,142.92,Mccarthy,AK
[MCG],62.97,155.62,Mcgrath,AK
[MYU],60.37,166.27,Mekoryuk,AK
[MDO],59.43,146.33,MiddletonIs,AK
[MHM],63.90,152.27,Minchumina,AK
[ENN],64.55,149.08,Nenana,AK
[KSM],62.07,163.30,NewAndreafs,AK
[IKO],53.58,169.42,Nikolski,AK
[OME],64.50,165.43,Nome,AK
[ORT],62.97,141.93,Northway,AK
[OLI],70.50,149.88,OliktokDew,AK
[PAQ],61.60,149.08,Palmer,AK
[5PX],63.03,145.50,Paxson,AK
[PSG],56.82,132.97,Petersburg,AK
[PIZ],69.82,162.92,PointLay,AK
[Z76],56.25,134.65,PortAlexndr,AK
[KPC],65.25,166.87,PortClarnce,AK
[PTH],56.95,158.62,PortHeiden,AK
[PPC],66.82,150.65,ProspectCrk,AK
[PUO],70.25,148.33,PrudhoeBay,AK
[Z30],60.20,154.30,PtAlsworth,AK
[PTI],62.17,153.25,Puntilla,AK
[SDP],55.33,160.50,SandPoint,AK
[5WD],60.18,149.75,Seward,AK
[SYA],53.20,174.13,Shemy,AK
[SHH],66.27,166.03,Shishmaref,AK
[SIT],57.07,135.35,Sitka,AK
[SKJ],56.88,154.20,Sitkinak,AK
[SGY],59.75,135.53,Skagway,AK
[SKW],61.97,151.20,Skwentna,AK
[5SO],62.03,146.67,SnowshoeLk,AK
[SNP],57.15,170.22,StPaulIs,AK
[5GN],61.90,147.30,TahnetaPass,AK
[TKA],62.30,150.10,Talkeetna,AK
[TAL],65.17,152.10,Tanana,AK
[UMT],69.37,152.13,Umiat,AK
[UNK],63.88,160.80,Unalakleet,AK
[VWS],61.13,146.35,Valdez,AK
[VDZ],61.13,146.25,Valdez2,AK
[AIN],70.62,159.85,Wainwright,AK
[WAA],66.03,168.08,Wales,AK
[5WT],60.78,148.72,Whittier,AK
[Z22],61.75,150.05,WillowArpt,AK
[WRG],56.48,132.37,Wrangell,AK
[YAK],59.52,139.67,Yakutat,AK
[DMA],32.17,110.88,Davis-MAFB,AZ
[DVT],33.68,112.08,DeerValley,AZ
[DUG],31.45,109.60,Douglas,AZ
[FFZ],33.47,111.73,FalconFld,AZ
[FLG],35.13,111.67,Flagstaff,AZ
[FHU],31.60,110.35,FortHuachuc,AZ
[GBN],33.55,113.17,GilaBend,AZ
[GYR],33.42,112.38,Goodyear,AZ
[GCN],35.95,112.15,GrandCanyon,AZ
[IGM],35.27,113.95,Kingman,AZ
[LUF],33.53,112.38,Luke,AZ
[PGA],36.93,111.45,Page,AZ
[0E4],34.23,111.33,Payson,AZ
[PHX],33.43,112.02,Phoenix,AZ
[PRC],34.65,112.43,Prescott,AZ
[E74],32.82,109.68,SaffordAwrs,AZ
[SDL],33.62,111.92,Scottsdale,AZ
[E03],34.27,110.00,ShowLow,AZ
[SOW],34.27,110.00,ShowLow,AZ
[TUS],32.12,110.93,Tucson,AZ
[CHD],33.30,111.67,WilliamsAFB,AZ
[INW],35.02,110.73,Winslow,AZ
[YUM],33.10,115.00,Yuma,AZ
[NYL],32.65,114.62,YumaMcas,AZ
[1Y7],32.85,114.40,YumaPrvGd,AZ
[BYH],35.97,89.95,Blytheville,AR
[CDH],33.52,92.40,Camden,AR
[ELD],33.22,92.80,ElDorado,AR
[FYV],36.00,94.17,Fayetteville,AR
[FSM],35.33,94.37,FtSmith,AR
[HRO],36.27,93.15,Harrison,AR
[HOT],34.48,93.10,HotSprings,AR
[JBR],35.83,90.65,Jonesboro,AR
[LIT],35.22,92.38,LittleRock,AR
[LRF],34.92,92.15,LittleRock,AR
[LZK],34.83,92.25,LittleRock,AR
[PBF],34.17,91.93,PineBluff,AR
[ASG],36.18,94.13,Springdale,AR
[TXK],33.45,94.00,Texarkana,AR
[ARG],36.13,90.93,WalnutRidge,AR
[NGZ],37.78,122.32,AlamedaNAS,CA
[S11],41.48,120.53,Alturas,CA
[ACV],40.98,124.10,Arcata,CA
[BFL],35.43,119.05,Bakersfield,CA
[BAB],39.13,121.45,BealeAFB,CA
[BUO],33.93,116.95,Beaumont,CA
[BYS],35.28,116.62,BicycleLk,CA
[L35],34.27,116.68,BigBearApt,CA
[BIH],37.60,118.60,Bishop,CA
[BLU],39.28,120.70,BlueCanyon,CA
[BLH],33.62,114.72,Blythe,CA
[BUR],34.20,118.37,Burbank,CA
[NFG],33.30,117.35,CampPendlet,CA
[CZZ],32.62,116.47,Campo,CA
[CRQ],33.13,117.28,Carlsbad,CA
[MER],37.38,120.57,CastleAFB,CA
[CIC],39.78,121.85,Chico,CA
[NID],35.68,117.68,ChinaLake,CA
[CNO],33.97,117.63,Chino,CA
[CCR],37.98,122.05,Concord,CA
[CEC],41.78,124.23,CrescentCty,CA
[DAG],34.87,116.78,Daggett,CA
[EDW],34.90,117.88,EdwardsAFB,CA
[NJK],32.82,115.68,ElCentro,CA
[EMT],34.08,118.03,ElMonte,CA
[NZJ],33.67,117.73,ElToro,CA
[EKA],41.33,124.28,Eureka,CA
[HGT],36.00,121.32,FortHunter,CA
[OAR],36.68,121.77,FortOrd,CA
[FAT],36.77,119.72,Fresno,CA
[FUL],33.87,117.97,Fullerton,CA
[VCV],34.58,117.38,GeorgeAFB,CA
[HHR],33.92,118.33,Hawthorne,CA
[HWD],37.65,122.12,Hayward,CA
[IPL],32.83,115.57,Imperial,CA
[NRS],32.57,117.12,ImperialBch,CA
[POC],34.10,117.78,LaVerne,CA
[TVL],38.90,120.00,LakeTahoe,CA
[WJF],34.73,118.22,Lancaster,CA
[NLC],36.33,119.95,LemooreNAS,CA
[LVK],37.70,121.82,Livermore,CA
[LGB],33.82,118.15,LongBeach,CA
[SLI],33.78,118.05,LosAlamitos,CA
[LAX],33.93,118.40,LosAngeles,CA
[MMH],37.63,118.92,MammothLks,CA
[RIV],33.88,117.27,MarchAFB,CA
[MYV],39.10,121.57,Marysville,CA
[MHR],38.57,121.30,MatherAFB,CA
[MCC],38.67,121.40,Mcclellan,CA
[MCE],37.28,120.52,Merced,CA
[NKX],32.87,117.15,MiramarNAS,CA
[MOD],37.63,120.95,Modesto,CA
[NUQ],37.42,122.05,MoffetNAS,CA
[MHV],35.05,118.15,Mojave,CA
[1O5],41.73,122.53,Montague,CA
[MRY],36.58,121.85,Monterey,CA
[MHS],41.32,122.32,MountShasta,CA
[MWS],34.23,118.07,MountWilson,CA
[APC],38.22,122.28,Napa,CA
[EED],34.77,114.62,Needles,CA
[NZY],32.70,117.20,NorthIs,CA
[SBD],34.10,117.23,NortonAFB,CA
[OAK],37.73,122.22,Oakland,CA
[ONT],34.05,117.62,OntarioIntl,CA
[OXR],34.20,119.20,Oxnard,CA
[PSP],33.83,116.50,PalmSprings,CA
[PMD],35.05,118.13,Palmdale,CA
[PAO],37.47,122.12,PaloAlto,CA
[PRB],35.67,120.63,PasoRobles,CA
[53Q],37.83,122.83,PillaroPt,CA
[NTD],34.12,119.12,PointMugu,CA
[PAA],39.58,124.22,PtArena,CA
[PGU],34.95,121.12,PtArguello,CA
[87Q],35.67,121.28,PtPiedras,CA
[PPD],36.12,121.47,PtPiedras,CA
[RBL],40.15,122.25,RedBluff,CA
[RDD],40.50,122.30,Redding,CA
[RAL],33.95,117.45,Riverside,CA
[SAC],38.52,121.50,Sacramento,CA
[SMF],38.70,121.60,Sacramento,CA
[SNS],36.67,121.60,Salinas,CA
[SQL],37.52,122.25,SanCarlos,CA
[L10],33.42,117.62,SanClemente,CA
[NUC],33.02,118.58,SanClemente,CA
[MYF],32.82,117.13,SanDiego,CA
[SAN],32.73,117.17,SanDiego,CA
[SDM],32.57,116.98,SanDiego,CA
[SDM],32.57,116.98,SanDiego,CA
[SEE],32.82,116.97,SanDiego,CA
[51Q],37.75,122.68,SanFrancisco,CA
[SFO],37.62,122.38,SanFrancisco,CA
[SJC],37.37,121.92,SanJose,CA
[RHV],37.33,121.82,SanJose/Rei,CA
[SBP],35.23,120.65,SanLuisObi,CA
[L98],33.38,117.58,SanMateo,CA
[N5G],34.03,120.40,SanMiguel,CA
[NSI],33.25,119.45,SanNicIsl,CA
[SDB],34.75,118.73,Sandburg,CA
[SNA],33.67,117.88,SantaAna,CA
[SBA],34.43,119.83,SantaBarb,CA
[SMX],34.90,120.45,SantaMaria,CA
[SMO],34.02,118.45,SantaMonica,CA
[STS],38.52,122.82,SantaRosa,CA
[O87],40.03,124.07,ShelterCove,CA
[SIY],41.78,122.47,Siskiyou,CA
[SCK],37.90,121.25,Stockton,CA
[4SU],35.33,117.10,SuperiorVal,CA
[SVE],40.63,120.95,Susanville,CA
[TRM],33.63,116.17,Thermal,CA
[TOA],33.80,118.33,Torrance,CA
[SUU],38.27,121.93,TravisAFB,CA
[TRK],39.32,120.13,Truckee-Tahoe,CA
[NTK],33.70,117.83,TustinMcas,CA
[NXP],34.28,116.15,Twenty9Palm,CA
[UKI],39.13,123.20,Ukiah,CA
[VNY],34.22,118.48,VanNuys,CA
[VBG],35.20,120.95,Vandenberg,CA
[VBG],35.20,120.95,Vandenberg,CA
[VIS],36.32,119.40,Visalia,CA
[AFF],39.52,105.35,AirForceA,CO
[AKO],40.17,103.22,Akron,CO
[ALS],37.45,105.87,Alamosa,CO
[ASE],39.22,106.87,Aspen,CO
[BJC],39.90,105.12,Brmfield/Jef,CO
[BKF],39.72,104.75,Buckley,CO
[COS],38.82,104.72,ColoSprgs,CO
[CEZ],37.30,108.63,Cortez,CO
[CAG],40.50,107.53,Craig-Moffat,CO
[DEN],39.75,104.87,Denver,CO
[DRO],37.15,107.75,Durango,CO
[EGE],39.65,106.92,Eagle,CO
[APA],39.57,104.83,Englewood,CO
[FCS],38.68,104.77,FortCarson,CO
[FSR],39.57,105.50,Fraser,CO
[FNL],40.45,105.02,FtCol/Lovel,CO
[FCL],40.58,105.08,FtCollins,CO
[GJT],39.12,108.53,GrandJct,CO
[GXY],40.43,104.63,Greeley-Wld,CO
[2V9],38.55,106.93,Gunnison,CO
[GUC],38.55,106.92,Gunnison,CO
[LHX],38.05,103.52,LaJunta,CO
[4LJ],38.12,102.60,Lamar,CO
[LXV],39.25,106.30,Leadville,CO
[LIC],39.18,103.70,Limon,CO
[6V8],38.50,107.88,Montrose,CO
[MTJ],38.50,107.88,Montrose,CO
[PUB],38.28,104.52,Pueblo,CO
[1V1],39.53,107.80,Rifle,CO
[S29],38.53,106.05,Salida,CO
[SBS],40.48,106.82,SteamboatSp,CO
[TAD],37.25,104.33,Trinidad,CO
[C96],40.00,105.87,WinterPark,CO
[BDR],41.17,73.13,Bridgeport,CT
[DXR],41.37,73.48,Danbury,CT
[GON],41.33,72.05,Groton,CT
[HFD],41.73,72.65,Hartford,CT
[30N],41.22,72.67,NewHaven,CT
[HVN],41.27,72.88,NewHaven,CT
[N11],41.27,72.90,NewHaven,CT
[18N],41.30,72.08,NewLondon,CT
[BDL],41.93,72.68,WindsorLoc,CT
[DOV],39.13,75.47,Dover,DE
[ILG],39.67,75.60,Wilmington,DE
[IAD],38.95,77.46,Washington/Dulles,DC
[DCA],38.85,77.04,Washington/Natl,DC
[AQQ],29.73,85.03,Apalachicola,FL
[90J],29.12,81.57,AstorNAS,FL
[AGR],28.08,81.55,AvonParkG,FL
[XMR],28.47,80.55,CapeCanaveral,FL
[NZC],30.22,81.88,Cecil,FL
[CEW],30.78,86.52,Crestview,FL
[CTY],29.62,83.10,CrossCity,FL
[DAB],29.18,81.05,DaytonaBch,FL
[EGI],30.65,86.52,DukeFld,FL
[VPS],30.48,86.53,EglinAFB,FL
[X91],27.60,82.77,EgmontKey,FL
[FXE],26.13,80.13,FortLauderd,FL
[FMY],26.58,81.87,FortMyers,FL
[FLL],26.07,80.15,FtLauderdale,FL
[RSW],26.65,81.87,FtMyers,FL
[GNV],29.68,82.27,Gainesville,FL
[HST],25.48,80.38,Homestead,FL
[HRT],30.43,86.68,HurlburtFld,FL
[CRG],30.33,81.52,Jacksonville,FL
[JAX],30.50,81.70,Jacksonville,FL
[NIP],30.23,81.68,Jacksonville,FL
[EYW],24.55,81.75,KeyWest,FL
[NQX],24.57,81.68,KeyWestNAS,FL
[LAL],28.03,81.95,Lakeland,FL
[MCF],27.85,82.52,MacdillAFB,FL
[MAI],30.84,85.18,Marianna,FL
[NRB],30.40,81.42,MayportNAS,FL
[MLB],28.10,80.63,Melbourne,FL
[MIA],25.82,80.28,MiamiIntl,FL
[OPF],25.92,80.28,Miami/Opa,FL
[TMB],25.65,80.43,Miami/Tamiami,FL
[APF],26.13,81.80,Naples,FL
[X68],28.62,80.68,NasaShuttle,FL
[MCO],28.43,81.32,Orlando,FL
[ORL],28.55,81.33,Orlando,FL
[PFN],30.20,85.68,PanamaCity,FL
[COF],28.23,80.60,PatrickAFB,FL
[NPA],30.35,87.32,Pensacola,FL
[PNS],30.47,87.20,Pensacola,FL
[TBW],27.97,82.60,Ruskin,FL
[PIE],27.92,82.68,SaintPeters,FL
[SFB],28.78,81.25,Sanford,FL
[SRQ],27.40,82.55,Sarasota,FL
[TLH],30.38,84.37,Tallahassee,FL
[TPA],27.97,82.53,TampaIntl,FL
[TIX],28.52,80.80,Titusville,FL
[PAM],30.07,85.58,TyndallAFB,FL
[VRB],27.65,80.42,VeroBeach,FL
[PBI],26.68,80.12,WPalmBeach,FL
[NSE],30.72,87.02,WhitingFld,FL
[ABY],31.53,84.18,Albany,GA
[AMG],31.53,82.52,Alma,GA
[AHN],33.95,83.32,Athens,GA
[ATL],33.65,84.42,Atlanta,GA
[ATL],33.65,84.42,Atlanta,GA
[PDK],33.88,84.30,Atlanta/Dklb,GA
[FTY],33.78,84.52,Atlanta/Fltn,GA
[AGS],33.37,81.97,Augusta/Bush,GA
[SSI],31.15,81.38,Brunswick,GA
[CSG],32.52,84.93,Columbus,GA
[MGE],33.92,84.52,DobbinsAFB,GA
[MGF],34.53,84.87,DobbinsAFB,GA
[LSF],32.33,85.00,FortBenning,GA
[LHW],31.88,81.57,FtStewart,GA
[SVN],32.02,81.15,HunterAaf,GA
[LGC],33.01,85.07,LaGrange,GA
[MCN],32.70,83.65,Macon/Lewis,GA
[VAD],30.97,83.20,MoodyAFB,GA
[WRB],32.63,83.60,RobinsAFB,GA
[RMG],34.35,85.17,Rome/Russell,GA
[SAV],32.13,81.20,SavannahMun,GA
[VLD],30.78,83.28,Valdosta,GA
[AYS],31.25,82.40,Waycross,GA
[HNA],21.53,158.12,BarbersPt,HI
[HNA],21.53,158.12,BarbersPt,HI
[BKH],22.05,160.30,BarkingSan,HI
[1Z6],24.45,166.47,FrFrigate,HI
[ITO],19.72,155.07,Hilo,HI
[HNL],21.35,157.93,HonoluluInt,HI
[OGG],20.90,156.43,KahuluiMaui,HI
[HNG],21.75,158.28,KaneoheMca,HI
[HNG],21.75,158.28,KaneoheMca,HI
[KOA],19.75,156.05,Ke-Ahole/Kon,HI
[0Z5],22.38,159.67,KilaueaPt,HI
[LNY],20.80,156.95,Lanai-Lanai,HI
[LIH],21.98,159.35,Lihue-Kauai,HI
[JHM],20.97,156.83,Maui,HI
[MKK],21.15,157.10,Molokai,HI
[1Z2],20.42,156.47,UpoloPtLn,HI
[MUE],20.00,156.12,Waimea-Koha,HI
[BOI],43.57,116.22,Boise,ID
[BYI],42.53,113.77,Burley,ID
[U15],44.52,114.22,Challis,ID
[COE],47.77,116.82,Coeurd'Alene,ID
[P69],45.82,115.43,ElkCity,ID
[GNG],43.00,115.17,Gooding,ID
[S80],45.92,116.13,Grangeville,ID
[IDA],43.52,112.07,IdahoFalls,ID
[LWS],46.38,117.02,Lewiston,ID
[MLD],42.17,112.32,MaladCity,ID
[77M],42.30,113.37,Malta,ID
[MYL],44.88,116.10,Mccall,ID
[MUO],43.05,115.87,MountnHome,ID
[S06],47.47,115.80,Mullan,ID
[PIH],42.92,112.60,Pocatello,ID
[27U],45.18,113.90,Salmon,ID
[SMN],45.17,114.47,Salmon,ID
[U78],42.65,111.58,SodaSprings,ID
[SUN],43.50,114.30,SunValley,ID
[TWF],42.48,114.48,TwinFalls,ID
[ALN],38.88,90.05,Alton,IL
[ARR],41.77,88.32,Aurora,IL
[CPS],38.57,90.15,BistatePark,IL
[BMI],40.48,88.93,Bloomington,IL
[BDF],41.16,89.60,Bradford,IL
[CTR],37.07,89.22,Cairo,IL
[MDH],37.78,89.25,Carbondale,IL
[ENL],38.51,89.09,Centralia,IL
[CMI],40.03,88.28,Champaign/Urbana,IL
[CHI],41.90,87.65,Chicago,IL
[CGX],41.87,87.62,Chicago/Meigs,IL
[MDW],41.78,87.75,Chicago/Midway,IL
[ORD],41.98,87.90,Chicago/O'hare,IL
[DNV],40.20,87.60,Danville,IL
[DKB],41.93,88.72,DeKalb,IL
[DEC],39.83,88.87,Decatur,IL
[DPA],41.92,88.25,DuPage,IL
[GBG],40.93,90.43,Galesburg,IL
[NBU],42.08,87.82,GlenviewNAS,IL
[IKK],41.07,87.85,Kankakee,IL
[MQB],40.52,90.66,Macomb,IL
[MWA],37.75,89.00,Marion,IL
[MMO],41.37,88.68,Marseilles,IL
[MTO],39.48,88.28,Mattoon,IL
[MLI],41.45,90.52,Moline/Quad,IL
[MVN],38.32,88.86,MountVernon,IL
[PIA],40.67,89.68,Peoria,IL
[UIN],39.93,91.20,Quincy,IL
[RFD],42.20,89.10,Rockford,IL
[SLO],38.63,88.96,Salem,IL
[BLV],38.55,89.85,ScottAFB,IL
[SPI],39.85,89.67,Springfield,IL
[SQI],41.74,89.67,Sterling,IL
[TAZ],39.53,89.33,Taylorville,IL
[VLA],38.99,89.17,Vandalia,IL
[BAK],39.38,86.50,BakalarAf,IN
[BMG],39.13,86.62,Bloomington,IN
[EKM],41.72,86.00,Elkhart,IN
[EVV],38.05,87.53,Evansville,IN
[FWA],41.00,85.20,FortWayne,IN
[GYY],41.62,87.42,Gary,IN
[GUS],40.65,86.15,GrissomAFB,IN
[IND],39.73,86.27,Indianapolis,IN
[MIE],40.23,85.38,Muncie,IN
[SBN],41.70,86.32,SouthBend,IN
[HUF],39.45,87.30,TerreHaute,IN
[LAF],40.42,86.93,WLafayette,IN
[BRL],40.78,91.12,Burlington,IA
[CID],41.88,91.70,CedarRapids,IA
[DSM],41.53,93.65,DesMoines,IA
[DBQ],42.40,90.70,Dubuque,IA
[EST],43.40,94.75,Estherville,IA
[FOD],42.55,94.18,FortDodge,IA
[3OI],40.62,93.93,Lamoni,IA
[MCW],43.15,93.33,MasonCity,IA
[OTM],41.10,92.45,Ottumwa,IA
[SUX],42.40,96.38,SiouxCity,IA
[3SE],43.17,95.15,Spencer,IA
[ALO],42.55,92.40,WaterlooMun,IA
[CNU],37.67,95.48,Chanute,KS
[3KM],37.75,97.22,Col.JJabar,KS
[CNK],39.55,97.65,Concordia,KS
[DDC],37.77,99.97,DodgeCity,KS
[1K5],37.00,101.88,Elkhart,KS
[EMP],38.33,96.20,Emporia,KS
[FLV],39.37,94.92,FtLeavnwrth,KS
[FRI],39.05,96.77,FtRiley,KS
[GCK],37.93,100.72,GardenCity,KS
[GLD],39.37,101.70,Goodland,KS
[HYS],38.85,99.27,Hays,KS
[HLC],39.38,99.83,HillCity,KS
[HUT],38.07,97.87,Hutchinson,KS
[IXD],38.82,94.88,JohnsonCnty,KS
[LBL],37.05,100.97,Liberal,KS
[MHK],39.15,96.67,Manhatten,KS
[IAB],37.62,97.27,McconnellAf,KS
[P28],37.30,98.58,MedicineLdg,KS
[OJC],38.85,94.90,Olathe,KS
[RSL],38.87,98.82,Russell,KS
[SLN],38.80,97.65,Salina,KS
[TOP],39.07,95.62,Topeka,KS
[FOE],38.95,95.67,Topeka/Forbe,KS
[ICT],37.65,97.43,Wichita,KS
[BWG],36.97,86.43,BowlingGren,KY
[HOP],36.67,87.50,FtCampbell,KY
[FTK],37.90,85.97,FtKnox,KY
[JKL],37.60,83.32,Jackson,KY
[LEX],38.05,85.00,Lexington,KY
[LOZ],37.08,84.07,London,KY
[LOU],38.23,85.67,Louisville,KY
[SDF],38.18,85.73,Louisville,KY
[OWB],37.75,87.17,Owensboro,KY
[PAH],37.07,88.77,Paducah,KY
[5I3],37.48,82.52,Pikeville,KY
[ESF],31.38,92.30,Alexandria,LA
[BAD],32.50,93.67,Barksdale,LA
[BTR],30.53,91.15,BatonRouge,LA
[BVE],29.55,89.67,Boothville,LA
[7R5],29.78,93.30,CameronHeli,LA
[01R],31.22,92.95,ClaiborneR,LA
[AEX],31.33,92.55,EnglandAFB,LA
[41I],28.47,91.78,EugeneIs.,LA
[POE],31.05,93.20,FortPolk,LA
[AXO],29.18,90.07,GrandIsle,LA
[5R0],28.22,93.75,HighIs,LA
[01T],28.13,94.40,HighIsland,LA
[HUM],29.57,90.65,Houma,LA
[7R4],29.73,92.12,Intercoastal,LA
[LFT],30.20,92.00,Lafayette,LA
[LCH],30.12,93.22,LakeCharles,LA
[7R3],29.70,91.10,LkPalourde,LA
[1G7],28.78,89.05,MissippiCan,LA
[MLU],32.52,92.05,Monroe,LA
[PTN],29.70,91.20,MorganCity,LA
[ARA],30.03,91.88,NewIberia,LA
[MSY],29.98,90.25,NewOrleans,LA
[NBG],29.83,90.02,NewOrleans,LA
[NEW],30.03,90.03,NewOrleans,LA
[7R8],28.30,91.98,SMarshIsl,LA
[DTN],32.52,93.75,Shreveport,LA
[SHV],32.47,93.82,Shreveport,LA
[SIL],30.35,89.82,Slidel,LA
[AUG],44.32,69.80,Augusta,ME
[BGR],44.80,68.82,Bangor,ME
[BHB],44.45,68.37,BarHarbor,ME
[NHZ],43.88,69.93,Brunswick,ME
[CAR],46.87,68.02,CaribouMun,ME
[3B1],45.45,69.55,Greenville,ME
[6B2],45.78,69.63,Greenville,ME
[HUL],46.13,67.78,Houlton,ME
[LIZ],46.95,67.88,LoringAFB,ME
[PWM],43.65,70.32,Portland,ME
[PQI],46.68,68.05,PresqueIsle,ME
[RKD],44.07,69.12,Rockland,ME
[RUM],44.88,70.88,Rumford,ME
[ADW],38.82,76.87,AndrewsAFB,MD
[BAL],39.18,76.67,Baltimore,MD
[BWI],39.18,76.67,Baltimore,MD
[MTN],39.33,76.42,Baltimore,MD
[FME],39.08,76.77,FortMeade,MD
[HGR],39.70,77.72,Hagerstown,MD
[N80],38.55,75.13,OceanCity,MD
[NHK],38.28,76.40,Patuxent,MD
[APG],39.47,76.17,Phillips,MD
[SBY],38.33,75.50,Salisbury,MD
[BED],42.47,71.28,Bedford,MA
[BVY],42.58,70.92,Beverly,MA
[BOS],42.37,71.03,Boston,MA
[30B],41.78,70.50,CapeCodCan,MA
[CHH],41.67,69.97,Chatham,MA
[AYE],42.57,71.60,FortDevens,MA
[HYA],41.67,70.28,Hyannis,MA
[LWM],42.72,71.12,Lawrence,MA
[MVY],41.40,70.62,MarthasVine,MA
[ACK],41.25,70.07,Nantucket,MA
[EWB],41.68,70.97,NewBedford,MA
[OWD],42.18,71.18,Norwood,MA
[FMH],41.65,70.52,OtisANGB,MA
[PSF],42.26,73.18,Pittsfield,MA
[NZW],42.15,70.93,SWeymouth,MA
[BAF],42.17,72.72,Westfield,MA
[CEF],42.20,72.53,Westover,MA
[ORH],42.27,71.87,Worcester,MA
[APN],45.07,83.57,Alpena,MI
[ARB],42.22,83.75,AnnArbor,MI
[BTL],42.30,85.23,BattleCreek,MI
[BEH],42.13,86.43,BentonHarbor,MI
[CIU],46.25,84.47,Chippewa,MI
[C10],43.07,85.95,Coopersville,MI
[P59],47.47,87.85,CopperHarb,MI
[DET],42.42,83.02,Detroit,MI
[DTW],42.23,83.33,Detroit,MI
[ESC],45.73,87.08,Escanaba,MI
[FNT],42.97,83.75,Flint/Bishop,MI
[GRR],42.88,85.52,GrandRapids,MI
[CMX],47.17,88.50,Hancock,MI
[P58],43.83,82.53,HarborBeach,MI
[HTL],44.37,84.68,HoughtonLake,MI
[IMT],45.82,88.12,IronMtn,MI
[IWD],46.53,90.13,Ironwood,MI
[JXN],42.27,84.47,Jackson,MI
[AZO],42.23,85.55,Kalamazoo,MI
[LAN],42.77,84.60,Lansing,MI
[MBL],44.27,86.25,Manistee,MI
[MQT],46.88,87.95,Marquette,MI
[MNM],45.12,87.63,Menominee,MI
[MKG],43.17,86.25,Muskegon,MI
[PLN],45.57,84.80,Pellston,MI
[PTK],42.67,83.42,Pontiac,MI
[MBS],43.53,84.08,Saginaw,MI
[SSM],46.47,84.37,SaultSteM,MI
[SAW],46.35,87.40,SawyerAFB,MI
[MTC],42.62,82.83,Selfridge,MI
[P75],45.92,85.92,SeulChoix,MI
[TVC],44.73,85.58,TraverseCty,MI
[OSC],44.45,83.40,Wurtsmith,MI
[YIP],42.23,83.53,Ypsilanti,MI
[AEL],43.68,93.37,AlbertLea,MN
[AXN],45.87,95.38,Alexandria,MN
[BJI],47.50,94.93,BemidjiMuni,MN
[BRD],46.40,94.13,Brainerd-Crw,MN
[DTL],46.82,95.88,DetroitLaks,MN
[DLH],46.83,92.18,Duluth,MN
[ELO],47.90,91.82,Ely,MN
[FRM],43.65,94.42,Fairmont,MN
[FFM],46.30,96.07,FergusFalls,MN
[GPZ],47.22,93.52,GrandRapids,MN
[HIB],47.38,92.85,Hibbing,MN
[INL],48.57,93.38,IntlFalls,MN
[Y69],45.13,94.52,Litchfield,MN
[MKT],44.22,93.92,Mankato,MN
[MML],44.45,95.82,MarshallArpt,MN
[FCM],44.83,93.47,Minneapolis,MN
[MIC],45.07,93.38,Minneapolis,MN
[MSP],44.88,93.22,Minneapolis,MN
[PKD],46.90,95.07,ParkRapids,MN
[P39],46.60,94.32,PequotLake,MN
[RWF],44.55,95.08,RedwoodFalls,MN
[RST],43.92,92.50,Rochester,MN
[STP],44.93,93.05,SaintPaul,MN
[STC],45.55,94.07,StCloud,MN
[TVF],48.07,96.18,ThiefRiver,MN
[P61],47.58,90.83,Tofte,MN
[D45],48.93,95.35,Warroad,MN
[OTG],43.65,95.58,Worthington,MN
[CBM],33.65,88.45,ColumbusAFB,MS
[GTR],33.45,88.58,GoldenTrian,MS
[GLH],33.48,90.98,Greenville,MS
[GWO],33.50,90.08,Greenwood,MS
[GPT],30.40,89.07,Gulfport,MS
[PIB],31.47,89.33,Hattiesburg,MS
[JAN],32.32,90.08,Jackson,MS
[BIX],30.42,88.92,KeeslerAFB,MS
[LUL],31.67,89.17,Laurel,MS
[MCB],31.18,90.47,Mccomb,MS
[NMM],32.55,88.57,MeridianNAS,MS
[MEI],32.33,88.75,Meridian/Key,MS
[HEZ],31.62,91.25,Natchez,MS
[UOX],34.39,89.54,Oxford,MS
[TUP],34.27,88.77,Tupelo,MS
[COU],38.82,92.22,Columbia,MO
[CGI],37.23,89.58,CpGirardeau,MO
[TBN],37.75,92.13,FtLeonard,MO
[JEF],38.60,92.17,JeffersonCity,MO
[JLN],37.17,94.50,Joplin,MO
[MCI],39.32,94.72,KansasCity,MO
[MKC],39.12,94.60,KansasCity,MO
[IRK],40.10,92.55,Kirksville,MO
[UMN],37.33,94.35,Monett,MO
[MKO],35.66,95.36,Muskogee,MO
[P02],36.77,90.47,PoplarBluff,MO
[GVW],38.85,94.55,Richards-Geb,MO
[P35],40.25,93.72,Spickard,MO
[SGF],37.23,93.38,Springfield,MO
[STJ],40.28,95.53,StJoseph,MO
[STL],38.75,90.37,StLouis,MO
[SUS],38.65,90.63,StLouis/Spirit,MO
[VIH],38.13,91.77,Vichy/Rolla,MO
[H63],37.22,92.42,WestPlains,MO
[UNO],36.88,91.90,WestPlains,MO
[SZL],38.73,93.55,WhitemanAFB,MO
[BIL],45.80,108.53,Billings,MT
[BZN],45.78,111.15,Bozeman,MT
[4BQ],45.67,105.67,Broadus,MT
[BTM],45.95,112.50,Butte,MT
[CTB],48.60,112.37,CutBank,MT
[DLN],45.25,112.55,Dillon,MT
[3DU],46.67,113.15,Drummond,MT
[GGW],48.22,106.62,Glasgow,MT
[GDV],47.13,104.80,Glendive,MT
[GTF],47.48,111.37,GreatFalls,MT
[3HT],46.43,109.83,Harlowton,MT
[HVR],48.55,109.77,Havre,MT
[HLN],46.60,112.00,Helena,MT
[JDN],47.33,106.93,Jordan,MT
[FCA],48.30,114.27,Kalispell,MT
[LWT],47.05,109.45,Lewiston,MT
[LVM],45.70,110.43,Livingston,MT
[GFA],47.50,111.18,Malmstrom,MT
[MLS],46.43,105.87,MilesCity,MT
[MSO],46.92,114.08,Missoula,MT
[MQM],44.57,112.32,Monida,MT
[SDY],47.72,104.18,Sidney,MT
[3TH],47.60,115.37,ThompsonFal,MT
[WEY],44.65,111.10,WYellowston,MT
[WYS],44.68,111.12,WYellowston,MT
[OLF],48.10,105.58,WolfPoint,MT
[ANW],42.58,99.98,Ainsworth,NE
[AIA],42.05,102.80,Alliance,NE
[BIE],40.32,96.75,Beatrice,NE
[BBW],41.43,99.65,BrokenBow,NE
[BUB],41.78,99.15,Burwell,NE
[CDR],42.83,103.08,Chadron,NE
[OLU],41.45,97.35,Columbus,NE
[CZD],40.87,100.00,Cozad,NE
[FNB],40.07,95.58,FallsCity,NE
[GRI],40.97,98.32,GrandIsland,NE
[HSI],40.60,98.43,Hastings,NE
[6V1],40.33,101.39,Imperial,NE
[IML],40.53,101.63,Imperial,NE
[EAR],40.73,99.00,Kearney,NE
[LNK],40.85,96.75,LincolnMuni,NE
[MCK],40.22,100.58,Mccook,NE
[MHN],42.05,101.05,Mullen,NE
[OFK],41.98,97.43,Norfolk,NE
[OVN],41.37,96.02,NorthOmaha,NE
[LBF],41.13,100.68,NorthPlatte,NE
[ONL],42.47,98.68,O'neill,NE
[OFF],41.12,95.92,OffuttAFB,NE
[OMA],41.30,95.90,Omaha/Eppley,NE
[ODX],41.62,98.95,Ord/Sharp,NE
[BFF],41.87,103.60,Scottsbluff,NE
[SNY],41.10,102.98,SidneyMuni,NE
[VTN],42.87,100.55,Valentine,NE
[AUI],39.83,117.13,Austin,NV
[U31],39.50,117.08,Austin,NV
[BAM],40.62,116.87,BattleMtn,NV
[P38],37.62,114.52,Caliente,NV
[EKO],40.83,115.78,Elko,NV
[ELY],39.28,114.85,Ely/Yelland,NV
[P68],39.50,115.97,Eureka,NV
[NFL],39.42,118.70,FallonNAS,NV
[HTH],38.55,118.63,Hawthorne,NV
[L63],36.53,115.57,IndSprngRn,NV
[L76],36.57,115.67,IndSprngRn,NV
[LAS],36.08,115.17,LasVegas,NV
[LOL],40.10,118.92,Lovelock,NV
[DRA],36.62,116.02,Mercury,NV
[LSV],36.23,115.03,NellisAFB,NV
[OWY],42.58,116.17,Owyhee,NV
[RNO],39.50,119.78,Reno,NV
[TPH],38.07,117.08,Tonopah,NV
[AWH],41.33,116.25,Wildhorse,NV
[WMC],40.90,117.80,Winnemucca,NV
[UCC],37.58,116.08,YuccaFlat,NV
[BML],44.58,71.18,Berlin,NH
[CON],43.20,71.50,Concord,NH
[AFN],42.80,72.00,Jaffrey,NH
[EEN],42.90,72.27,Keene,NH
[LCI],43.57,71.43,Laconia,NH
[LEB],43.63,72.30,Lebanon,NH
[MHT],42.93,71.43,Manchester,NH
[MWN],44.27,71.30,MtWashingtn,NH
[ASH],42.78,71.52,Nashua,NH
[PSM],43.08,70.82,PeaseAFB,NH
[8B8],44.00,71.38,Wolfeboro,NH
[ACY],39.45,74.57,AtlanticCty,NJ
[N78],40.28,74.28,BarnegatLs,NJ
[CDW],40.87,74.28,Fairfield,NJ
[NEL],40.03,74.35,Lakehurst,NJ
[WRI],40.02,74.60,McguireAFB,NJ
[MIV],39.37,75.07,Millville,NJ
[MMU],40.80,74.42,Morristown,NJ
[EWR],40.70,74.17,NewarkIntl,NJ
[TEB],40.85,74.05,Teterboro,NJ
[TTN],40.28,74.82,Trenton,NJ
[ABQ],35.05,106.60,Albuquerque,NM
[CVS],34.38,103.32,Cannon,NM
[CNM],32.33,104.27,Carlsbad,NM
[CAO],36.45,103.15,ClaytonArpt,NM
[4CR],34.10,105.68,Corona,NM
[4SL],36.02,106.95,CubaAwrs,NM
[DMN],32.25,107.70,Deming,NM
[FMN],36.75,108.23,Farmington,NM
[GUP],35.52,108.78,Gallup/Clark,NM
[GNT],35.17,107.90,Grants,NM
[HOB],32.68,103.20,Hobbs,NM
[HMN],32.85,106.10,HollomanAFB,NM
[LRU],32.30,106.77,LasCruces,NM
[LVS],35.65,105.15,LasVegas,NM
[LAM],35.88,106.28,LosAlamos,NM
[4MY],34.98,106.05,Moriarity,NM
[E28],32.90,106.40,NorthrupStr,NM
[RTN],36.74,104.50,Raton,NM
[ROW],33.30,104.53,Roswell,NM
[SAF],35.62,106.08,SantaFe,NM
[SVC],32.63,108.17,SilverCity,NM
[ONM],34.07,106.90,Socorro,NM
[E23],36.42,105.57,Taos,NM
[TCS],33.23,107.27,TruthOrCon,NM
[TCC],35.18,103.60,Tucumcari,NM
[2C2],32.63,106.40,WhiteSands,NM
[ALB],42.75,73.80,Albany,NY
[N28],40.75,74.37,Ambrose,NY
[BGM],42.22,75.98,Binghamton,NY
[BUF],42.93,78.73,Buffalo,NY
[DSV],42.97,78.20,Dansville,NY
[ELM],42.17,76.90,Elmira,NY
[FRG],40.73,73.43,Farmingdale,NY
[GTB],44.05,75.73,FortDrum,NY
[GFL],43.35,73.62,GlensFalls,NY
[RME],43.23,75.40,GriffissAFB,NY
[ISP],40.78,73.10,Islip,NY
[ITH],42.48,76.47,Ithaca,NY
[JHW],42.15,79.25,Jamestown,NY
[MSS],44.93,74.85,Massena,NY
[MSV],41.70,74.80,Monticello,NY
[NYC],40.77,73.98,NewYork,NY
[JFK],40.65,73.78,NewYork/JFK,NY
[LGA],40.77,73.90,NewYork/LGA,NY
[SWF],41.50,74.10,Newburgh,NY
[IAG],43.10,78.95,NiagaraFall,NY
[OGS],44.68,75.40,Ogdensburg,NY
[N66],42.87,75.12,Oneonta,NY
[PBG],44.65,73.47,Plattsburgh,NY
[POU],41.63,73.88,Poughkeepsie,NY
[ROC],43.12,77.67,Rochester,NY
[ROC],43.12,77.67,Rochester,NY
[SLK],44.38,74.20,SaranacLk,NY
[SCH],42.85,73.93,Schenectady,NY
[SYR],43.12,76.12,Syracuse,NY
[UCA],43.15,75.38,Utica,NY
[ART],44.00,76.02,Watertown,NY
[FOK],40.85,72.63,Westhampton,NY
[HPN],41.07,73.72,WhitePlains,NY
[AVL],35.43,82.55,Asheville,NC
[HAT],35.27,75.55,CapeHattera,NC
[CLT],35.22,80.93,Charlotte,NC
[NKT],34.90,76.88,CherryPoint,NC
[2DP],36.13,76.50,DareCoGr,NC
[44W],35.25,75.50,DiamondSho,NC
[ECG],36.27,76.18,Elizabeth,NC
[FAY],35.00,78.88,Fayetteville,NC
[FBG],35.13,78.93,FortBragg,NC
[GSO],36.08,79.95,Greensboro,NC
[HKY],35.75,81.38,Hickory,NC
[HSS],35.90,82.82,HotSprings,NC
[OAJ],34.82,77.62,Jacksonville,NC
[ISO],35.32,77.63,Kinston,NC
[HFF],35.03,79.50,MackallAaf,NC
[MQI],35.92,75.68,ManteoArpt,NC
[EWN],35.08,77.05,NewBern,NC
[NCA],34.70,77.43,NewRiver,NC
[POB],35.17,79.02,PopeAFB,NC
[RDU],35.87,78.78,Raleigh-Durh,NC
[RWI],35.85,77.88,RockyMt,NC
[GSB],35.33,77.97,Seymour-John,NC
[SOP],35.24,79.39,SouthernPin,NC
[ILM],34.27,77.92,Wilmington,NC
[INT],36.13,80.23,Winston-Salem,NC
[BIS],46.77,100.75,Bismarck,ND
[DVL],48.12,98.90,Devil'sLake,ND
[P11],48.10,98.87,Devil'sLake,ND
[DIK],46.78,102.80,Dickenson,ND
[FAR],46.90,96.80,Fargo,ND
[GFK],47.95,97.18,GrandForks,ND
[RDR],47.97,97.40,GrandForks,ND
[JMS],46.92,98.68,Jamestown,ND
[P67],46.10,97.15,Lidgerwood,ND
[MIB],48.42,101.35,MinotAFB,ND
[MOT],48.27,101.28,MinotIntl,ND
[P24],47.75,101.83,Roseglen,ND
[ISN],48.18,103.63,Williston,ND
[UNI],39.21,82.23,Athens/Albany,OH
[CAK],40.92,81.43,Canton,OH
[CVG],39.05,84.67,Cincinnati,OH
[LUK],39.10,84.43,Cincinnati,OH
[BKL],41.52,81.68,Cleveland,OH
[CGF],41.57,81.48,Cleveland,OH
[CLE],41.42,81.87,Cleveland,OH
[CMH],40.00,82.88,Columbus,OH
[OSU],40.08,83.07,ColumbusOsu,OH
[DAY],39.90,84.20,Dayton,OH
[FDY],41.02,83.67,Findlay,OH
[MFD],40.82,82.52,Mansfield,OH
[LCK],39.82,82.93,Rickenbacker,OH
[TOL],41.60,83.80,Toledo,OH
[LNN],41.63,81.40,Willoughby,OH
[FFO],39.83,84.05,Wright-PatAFB,OH
[YNG],41.27,80.67,Youngstown,OH
[ZZV],39.95,81.90,Zanesville,OH
[LTS],34.67,99.27,AltusAFB,OK
[ADM],34.30,97.02,Ardmore,OK
[BVO],36.75,96.00,Bartlesville,OK
[CSM],35.35,99.20,Clinton,OK
[WDG],36.38,97.80,Enid,OK
[FSI],34.65,98.40,FortSill,OK
[GAG],36.30,99.77,Gage,OK
[HBR],35.00,99.05,Hobart,OK
[LAW],34.57,98.42,Lawton,OK
[MLC],34.88,95.78,Mcalester,OK
[OUN],35.23,97.47,Norman,OK
[OKC],35.40,97.60,OklahomaCty,OK
[PWA],35.53,97.65,OklahomaCty,OK
[PGO],34.68,94.62,Page,OK
[PNC],36.73,97.10,PoncaCity,OK
[SWO],36.16,97.09,Stillwater,OK
[TIK],35.42,97.38,TinkerAFB,OK
[TUL],36.20,95.90,Tulsa,OK
[END],36.33,97.92,VanceAFB,OK
[AST],46.15,123.88,Astoria,OR
[3S2],45.25,122.75,Aurora,OR
[BKE],44.83,117.82,Baker,OR
[4BK],42.08,124.47,Brookings,OR
[BNO],43.60,118.95,BurnsArpt,OR
[92S],43.38,124.95,CapeBlanco,OR
[CZK],45.68,121.88,Cascade,OR
[CVO],44.50,123.28,Corvallis,OR
[EUG],44.12,123.22,Eugene,OR
[HIO],45.53,122.95,Hillsboro,OR
[LMT],42.15,121.73,KlamathFall,OR
[LGD],45.28,118.00,LaGrande,OR
[4LW],42.18,120.35,LakeView,OR
[MEH],45.50,118.40,Meacham,OR
[MFR],42.37,122.87,Medford,OR
[ONP],44.63,124.05,Newport,OR
[OTH],43.42,124.25,NorthBend,OR
[ONO],44.02,117.02,Ontario,OR
[PDT],45.68,118.85,Pendleton,OR
[PDX],45.60,122.60,Portland,OR
[RDM],44.27,121.15,Redmond,OR
[RBG],43.23,123.37,Roseburg,OR
[SLE],44.92,123.00,Salem,OR
[SXT],42.62,123.37,Sexton,OR
[DLS],45.62,121.15,TheDalles,OR
[TTD],45.55,122.40,Troutdale,OR
[ABE],40.65,75.43,Allentown,PA
[AOO],40.30,78.32,Altoona,PA
[BVI],40.75,80.33,BeaverFalls,PA
[BSI],40.27,79.09,Blairsville,PA
[BFD],41.80,78.63,Bradford,PA
[DUJ],41.18,78.90,Dubois,PA
[ERI],42.08,80.18,Erie,PA
[FKL],41.38,79.87,Franklin,PA
[CXY],40.22,76.85,Harrisburg,PA
[HAR],40.37,77.42,Harrisburg,PA
[JST],40.32,78.83,Johnstown,PA
[LNS],40.13,76.30,Lancaster,PA
[LBE],40.28,79.40,Latrobe,PA
[MDT],40.20,76.77,Middletown,PA
[MUI],40.43,76.57,Muir,PA
[PNE],40.08,75.02,NthPhiladel,PA
[PHL],39.88,75.25,Philadelphia,PA
[PSB],41.47,78.13,Philipsburg,PA
[AGC],40.35,79.93,Pittsburgh,PA
[PIT],40.50,80.22,Pittsburgh,PA
[RDG],40.38,75.97,Reading,PA
[43M],39.73,77.43,SiteR,PA
[UNV],40.85,77.83,StateColleg,PA
[AVP],41.33,75.73,Wilkes-Barre,PA
[IPT],41.25,76.92,Williamsport,PA
[NXX],40.20,75.15,WillowGrove,PA
[BID],41.17,71.58,BlockIsland,RI
[OQU],41.60,71.42,NthKingston,RI
[PVD],41.73,71.43,Providence,RI
[NCO],41.36,71.25,QuonsetPtNAS,RI
[AND],34.50,82.72,Anderson,SC
[NBC],32.48,80.72,BeaufortMca,SC
[CHS],32.90,80.03,Charleston,SC
[CAE],33.95,81.12,Columbia,SC
[FLO],34.18,79.72,Florence,SC
[GMU],34.85,82.35,Greenville,SC
[GSP],34.90,82.22,Greenville,SC
[MMT],33.92,80.80,Mcentire,SC
[MYR],33.68,78.93,MyrtleBeach,SC
[CRE],33.82,78.72,NthMyrtleB,SC
[SSC],33.97,80.47,ShawAFB,SC
[SPA],34.92,81.96,Spartanburg,SC
[ABR],45.45,98.43,Aberdeen,SD
[BKX],44.30,96.80,Brookings,SD
[9V9],43.80,99.32,Chamberlain,SD
[CHB],43.75,99.32,Chamberlain,SD
[0V1],43.77,103.60,Custer,SD
[RCA],44.15,103.10,EllsworthAf,SD
[HON],44.38,98.22,Huron,SD
[Y22],45.93,102.17,Lemmon,SD
[MHE],43.77,98.03,Mitchell,SD
[Y26],45.53,100.43,Mobridge,SD
[P05],44.05,101.60,Philip,SD
[PHP],44.05,101.60,Philip,SD
[PIR],44.38,100.28,Pierre,SD
[RAP],44.05,103.07,RapidCity,SD
[REJ],45.16,103.32,Redig,SD
[FSD],43.58,96.73,SiouxFalls,SD
[ATY],44.92,97.15,Watertown,SD
[YKN],42.92,97.38,Yankton,SD
[TRI],36.48,82.40,Bristol,TN
[CHA],35.03,85.20,Chattanooga,TN
[CKV],36.62,87.42,Clarksville,TN
[CSV],35.95,85.08,Crossville,TN
[DYR],36.02,89.40,Dyersburg,TN
[MKL],35.60,88.92,Jackson,TN
[TYS],35.82,83.98,Knoxville,TN
[MEM],35.05,90.00,MemphisIntl,TN
[NQA],35.35,89.87,MemphisNAS,TN
[MGL],35.15,85.51,Monteagle,TN
[BNA],36.12,86.68,Nashville,TN
[MQY],36.00,86.50,Smyrna,TN
[ABI],32.42,99.68,Abilene,TX
[ALI],27.73,98.03,Alice,TX
[AMA],35.23,101.70,Amarillo,TX
[AUS],30.30,97.70,Austin,TX
[BSM],30.20,97.68,BergstromAf,TX
[BGS],32.39,101.48,BigSky,TX
[HCA],32.30,101.45,BigSpring,TX
[BRO],25.90,97.43,Brownsville,TX
[BWD],31.79,98.96,Brownwood,TX
[FWH],32.78,97.43,CarswellAFB,TX
[NIR],28.37,97.67,ChaseNAS,TX
[CDS],34.43,100.28,Childress,TX
[CLL],30.58,96.37,CollegeStn,TX
[CRP],27.77,97.50,CorpusChrst,TX
[NGP],27.70,97.28,CorpusChrst,TX
[COT],28.45,99.22,Cotulla,TX
[DWH],30.07,95.55,D.w.Hooks,TX
[DHT],36.02,102.55,Dalhart,TX
[NBE],32.73,96.97,DallasNAS,TX
[ADS],32.97,96.83,Dallas/Addis,TX
[DFW],32.90,97.03,Dallas/FW,TX
[DAL],32.85,96.85,Dallas/Love,TX
[RBD],32.68,96.87,Dallas/Redbr,TX
[DRT],29.37,100.92,DelRio,TX
[DYS],32.43,99.85,DyessAFB,TX
[ELP],31.80,106.40,ElPaso,TX
[EFD],29.62,95.17,EllingtonAf,TX
[FTW],32.82,97.35,FortWorth,TX
[HLR],31.15,97.72,FtHoodAaf,TX
[GLS],29.27,94.87,Galveston,TX
[GRK],31.07,97.83,GrayAFB,TX
[GVT],33.07,96.07,Greenville,TX
[GDP],31.83,104.80,GuadalupePs,TX
[HRL],26.23,97.67,Harlingen,TX
[HDO],29.35,99.17,Hondo,TX
[IAH],29.97,95.35,Houston,TX
[HOU],29.65,95.28,Houston/Hobby,TX
[JCT],30.50,99.77,Junction,TX
[SKF],29.38,98.58,KellyAFB,TX
[ERV],29.98,99.08,Kerrville,TX
[ILE],31.08,97.68,Killeen,TX
[NQI],27.50,97.82,Kingsville,TX
[LRD],27.53,99.47,LaredoIntl,TX
[DLF],29.37,100.78,LaughlinAFB,TX
[GGG],32.38,94.72,Longview,TX
[LBB],33.65,101.82,Lubbock,TX
[LFK],31.23,94.75,Lufkin,TX
[MRF],30.37,104.02,Marfa,TX
[MFE],26.18,98.23,Mcallen,TX
[MAF],31.95,102.18,Midland,TX
[MWL],32.78,98.07,MineralWlls,TX
[PSX],28.72,96.25,Palacios,TX
[PRX],33.63,95.45,Paris/Cox,TX
[PVW],34.17,101.71,Plainview,TX
[BPT],30.58,94.02,PortArthur,TX
[RND],29.53,98.28,RandolphAFB,TX
[REE],33.60,102.05,ReeseAFB,TX
[RKP],28.08,97.03,Rockport,TX
[SJT],31.37,100.50,SanAngelo,TX
[SAT],29.53,98.47,SanAntonio,TX
[SSF],29.33,98.47,SanAntonio,TX
[P07],30.17,102.42,Sanderson,TX
[F39],33.72,96.67,Sherman-Deni,TX
[T46],28.03,95.87,SouthBrazos,TX
[SEP],32.22,98.18,Stephenville,TX
[TPL],31.15,97.42,Temple,TX
[TYR],32.37,95.40,Tyler/Pounds,TX
[VCT],28.85,96.92,Victoria,TX
[ACT],31.62,97.22,Waco-Madison,TX
[SPS],33.98,98.50,WichitaFlls,TX
[INK],31.78,103.20,Wink,TX
[4BL],38.03,109.78,Blanding,UT
[U17],37.50,110.70,BullfrogMar,UT
[CDC],37.70,113.10,CedarCity,UT
[U24],39.33,112.58,Delta,UT
[DPG],40.20,112.93,DugwayPrvgr,UT
[U16],41.05,113.07,EagleRange,UT
[U28],39.00,110.15,GreenRiver,UT
[4HV],38.37,110.72,Hanksville,UT
[HIF],41.12,111.97,HillAFB,UT
[LGU],41.78,111.85,Logan,UT
[MLF],38.72,113.03,Milford,UT
[CNY],38.77,109.75,Moab,UT
[OGD],41.18,112.02,Ogden,UT
[PUC],39.62,110.75,Price/Carbon,UT
[PVU],40.22,111.72,Provo,UT
[U67],40.50,110.63,Roosevelt,UT
[SGU],37.08,113.60,SaintGeorge,UT
[SLC],40.78,111.97,SaltLakeCt,UT
[T62],40.17,112.20,Tooele,UT
[VEL],40.45,109.52,Vernal,UT
[ENV],41.22,114.05,Wendover,UT
[BTV],44.47,73.15,Burlington,VT
[MPV],44.20,72.57,Montpelier,VT
[EFK],45.55,72.33,Newport,VT
[RUT],43.53,73.95,Rutland,VT
[9B2],44.42,72.02,StJohnsbury,VT
[MNW],42.88,72.88,Wilmington,VT
[CHO],38.13,78.45,Charlottesvi,VA
[W39],37.50,76.20,Chesapeake,VA
[DAN],36.57,79.33,Danville,VA
[DAA],38.72,77.18,FortBelvoir,VA
[FAF],37.13,76.62,FortEustis,VA
[HSP],37.95,79.82,HotSprings,VA
[LFI],37.08,76.37,LangleyAFB,VA
[LYH],37.33,79.20,Lynchburg,VA
[PHF],37.13,76.50,NewportNews,VA
[NGU],36.93,76.28,NorfolkNAS,VA
[ORF],36.90,76.20,NorfolkRgnl,VA
[NTU],36.82,76.03,OceanaNAS,VA
[NYG],38.50,77.30,QuanticoMca,VA
[RIC],37.50,77.33,Richmond,VA
[ROA],37.32,79.97,RoanokeMuni,VA
[SHD],38.27,78.85,Staunton,VA
[VQN],36.95,78.98,Volens,VA
[WAL],37.85,75.48,WallopsSta,VA
[BLI],48.80,122.53,Bellingham,WA
[PWT],47.48,122.77,Bremerton,WA
[75S],48.50,122.33,Burlington,WA
[63S],48.88,118.47,Colville,WA
[EPH],47.32,119.52,Ephrata,WA
[PAE],47.92,122.28,Everet/Paine,WA
[SKA],47.62,117.65,Fairchild,WA
[GRF],47.08,122.58,FortLewis,WA
[HMS],46.57,119.60,Hanford,WA
[HQM],46.97,123.97,Hoquiam,WA
[TCM],47.15,122.48,McchordAFB,WA
[MWH],47.20,119.32,MosesLake,WA
[76S],48.25,122.68,OakHarbor,WA
[OLM],46.97,122.90,Olympia,WA
[4OM],48.42,119.53,Omak,WA
[PSC],46.27,119.12,Pasco,WA
[CLM],48.12,123.50,PortAngeles,WA
[NOW],48.22,123.67,PortAngeles,WA
[PUW],46.75,117.12,Pullman,WA
[UIL],47.95,124.55,Quillayute,WA
[RNT],47.50,122.22,Renton,WA
[SEA],47.45,122.30,Seattle,WA
[BFI],47.53,122.30,Seattle/Boeing,WA
[SHN],47.25,123.15,Shelton,WA
[GEG],47.63,117.53,Spokane,WA
[SFF],47.67,117.33,Spokane,WA
[SMP],47.28,121.33,StampedePas,WA
[TIW],47.27,122.58,Tacoma,WA
[TDO],46.48,122.80,Toledo,WA
[ALW],46.10,118.28,WallaWalla,WA
[EAT],47.40,120.20,Wenatchee,WA
[NUW],48.35,122.65,WhidbeyIs,WA
[YKM],46.57,120.53,Yakima,WA
[BKW],37.78,81.12,Beckley,WV
[BLF],37.30,81.22,Bluefield,WV
[CRW],38.37,81.60,Charleston,WV
[CKB],39.28,80.23,Clarksburg,WV
[EKN],38.88,79.85,Elkins,WV
[HTS],38.37,82.55,Huntington,WV
[LWB],37.87,80.40,Lewisburg,WV
[MRB],39.40,77.98,Martinsburg,WV
[MGW],39.65,79.92,Morgantown,WV
[PKB],39.35,81.43,Parkersburg,WV
[HLG],40.18,80.65,Wheeling,WV
[SSU],37.46,80.20,WhiteSulph,WV
[ATW],44.25,88.52,Appleton,WI
[EAU],44.87,91.48,EauClaire,WI
[GRB],44.48,88.13,GreenBay,WI
[JVL],42.62,89.03,Janesville,WI
[LSE],43.87,91.25,LaCrosse,WI
[LNR],43.20,90.18,LoneRock,WI
[MSN],43.13,89.33,Madison,WI
[MTW],44.13,87.67,Manitowac,WI
[MKE],42.95,87.90,Milwaukee,WI
[MWC],43.12,88.05,Milwaukee,WI
[CWA],44.78,89.67,Mosinee,WI
[EEW],44.22,88.53,Neenah,WI
[OSH],44.00,88.57,Oshkosh,WI
[RHI],45.63,89.45,Rhinelander,WI
[RIE],45.48,91.72,RiceLake,WI
[VOK],43.93,90.27,VolkFld,WI
[AUW],44.92,89.62,Wausau,WI
[BPI],42.57,110.10,BigPiney,WY
[CPR],42.92,106.47,Casper,WY
[CYS],41.15,104.82,Cheyenne,WY
[COD],44.52,109.02,Cody,WY
[4DG],42.75,105.38,Douglas,WY
[EVW],41.33,111.00,Evanston,WY
[GCC],44.35,105.53,Gillette,WY
[JAC],43.60,110.73,Jackson,WY
[LND],42.82,108.73,Lander,WY
[LAR],41.32,105.68,Laramie,WY
[4MC],44.35,104.81,Moorcroft,WY
[RWL],41.80,107.20,Rawlins,WY
[RIW],43.05,108.45,Riverton,WY
[RKS],41.60,109.07,RockSprings,WY
[SHR],44.77,106.97,Sheridan,WY
[WRL],43.97,107.97,Worland,WY
[P60],44.55,110.42,Yellowstone,WY
